{
  "employees": [
    {
      "id": "1",
      "name": "veda",
      "location": "india",
      "phone": "8008224084",
      "designation": "tester",
      "skills": [
        "JIRA",
        "HP ALM"
      ]
    },
    {
      "id": "2",
      "name": "pravali",
      "location": "india",
      "phone": "8341211659",
      "designation": "tester",
      "skills": [
        "JIRA",
        "HP ALM"
      ]
    },
    {
      "id": "3",
      "name": "sai",
      "location": "india",
      "phone": "8008224084",
      "designation": "tester",
      "skills": [
        "JIRA",
        "HP ALM"
      ]
    },
    {
      "id": "4",
      "name": "tharun",
      "location": "india",
      "phone": "8008224084",
      "designation": "tester",
      "skills": [
        "JIRA",
        "HP ALM"
      ]
    },
    {
      "name": "venkat",
      "location": "india",
      "phone": "8008224084",
      "designation": "tester",
      "skills": [
        "UAT",
        "SIT"
      ],
      "id": "5"
    },
    {
      "id": "ae69",
      "name": "charlie",
      "location": "india",
      "phone": "9009009911",
      "designation": "analyst",
      "skills": [
        "JIRA",
        "HP ALM"
      ]
    },
    {
      "id": "f273",
      "name": "charlie",
      "location": "india",
      "phone": "9009009911",
      "designation": "analyst",
      "skills": [
        "JIRA",
        "HP ALM"
      ]
    },
    {
      "id": "9211",
      "name": "charlie",
      "location": "india",
      "phone": "9009009911",
      "designation": "analyst",
      "skills": [
        "JIRA",
        "HP ALM"
      ]
    },
    {
      "id": "dcbf",
      "name": "charlie",
      "location": "india",
      "phone": "9009009911",
      "designation": "analyst",
      "skills": [
        "JIRA",
        "HP ALM"
      ]
    },
    {
      "id": "c07c",
      "name": "test",
      "location": "india",
      "phone": "9009009911",
      "designation": "analyst",
      "currency": "INR",
      "language": "english",
      "skills": [
        "JIRA",
        "HP ALM"
      ]
    },
    {
      "id": "a0d7",
      "name": "test",
      "location": "india",
      "phone": "9009009911",
      "designation": "analyst",
      "currency": "INR",
      "language": "english",
      "skills": [
        "JIRA",
        "HP ALM"
      ]
    },
    {
      "id": "b7cc",
      "name": "test",
      "location": "india",
      "phone": "9009009911",
      "designation": "analyst",
      "currency": "INR",
      "language": "english",
      "skills": [
        "JIRA",
        "HP ALM"
      ]
    },
    {
      "id": "9862",
      "name": "test",
      "location": "india",
      "phone": "9009009911",
      "designation": "analyst",
      "currency": "INR",
      "language": "english",
      "skills": [
        "JIRA",
        "HP ALM"
      ]
    },
    {
      "id": "5c65",
      "name": "test",
      "location": "india",
      "phone": "9009009911",
      "designation": "analyst",
      "currency": "INR",
      "language": "english",
      "skills": [
        "JIRA",
        "HP ALM"
      ]
    }
  ]
}